City_ID,City,Country,Max Temp,Current Description,Lat,Lng,Hotel Name
1,kapaa,US,71.58,light rain,22.0752,-159.319,
2,avarua,CK,77.05,broken clouds,-21.2078,-159.775,
3,araouane,ML,75.72,overcast clouds,18.9048,-3.5265,
4,nisia floresta,BR,85.01,light rain,-6.0911,-35.2086,
5,jamestown,US,38.79,overcast clouds,42.097,-79.2353,
7,codrington,AU,55.69,clear sky,-38.2667,141.9667,
8,ushuaia,AR,60.46,clear sky,-54.8,-68.3,
10,cape town,ZA,75.9,clear sky,-33.9258,18.4232,
12,bathsheba,BB,86.61,few clouds,13.2167,-59.5167,
13,vao,NC,78.28,moderate rain,-22.6667,167.4833,
14,albany,US,33.26,overcast clouds,42.6001,-73.9662,
15,rincon,US,46.85,overcast clouds,32.296,-81.2354,
16,punta arenas,CL,60.82,light rain,-53.15,-70.9167,
18,arzamas,RU,32.34,light snow,55.3949,43.8399,
19,east london,ZA,77.94,clear sky,-33.0153,27.9116,
20,bredasdorp,ZA,70.41,scattered clouds,-34.5322,20.0403,
22,castro,BR,65.93,overcast clouds,-24.7911,-50.0119,
23,bilma,NE,65.95,scattered clouds,18.6853,12.9164,
24,poniatowa,PL,37.31,overcast clouds,51.1798,22.1309,
25,rikitea,PF,76.17,clear sky,-23.1203,-134.9692,
26,finschhafen,PG,79.88,overcast clouds,-6.6024,147.8681,
27,syamzha,RU,33.01,overcast clouds,60.0158,41.0614,
30,carnarvon,AU,85.28,broken clouds,-24.8667,113.6333,
32,new norfolk,AU,55.71,broken clouds,-42.7826,147.0587,
33,mpulungu,ZM,71.26,light rain,-8.7623,31.1141,
34,port alfred,ZA,71.19,clear sky,-33.5906,26.891,
35,dubai,AE,76.93,clear sky,25.2582,55.3047,
37,lorengau,PG,82.08,light rain,-2.0226,147.2712,
38,airai,TL,60.03,overcast clouds,-8.9266,125.4092,
39,bengkulu,ID,76.19,heavy intensity rain,-3.8004,102.2655,
40,varna,BG,42.87,clear sky,43.2167,27.9167,
43,wawa,NG,83.91,broken clouds,9.9022,4.4192,
45,vicuna,CL,88.77,clear sky,-30.0319,-70.7081,
47,busselton,AU,63.95,clear sky,-33.65,115.3333,
48,mahebourg,MU,78.26,few clouds,-20.4081,57.7,
49,mar del plata,AR,86.83,scattered clouds,-38.0023,-57.5575,
50,hermanus,ZA,70.81,scattered clouds,-34.4187,19.2345,
51,namibe,AO,69.96,broken clouds,-15.1961,12.1522,
53,azare,NG,71.19,clear sky,11.6765,10.1948,
56,sao gabriel da cachoeira,BR,87.6,clear sky,-0.1303,-67.0892,
57,san diego de la union,MX,65.46,broken clouds,21.4667,-100.8667,
59,ahipara,NZ,60.01,few clouds,-35.1667,173.1667,
60,fortuna,US,50.34,few clouds,40.5982,-124.1573,
61,shelburne,CA,32.76,overcast clouds,44.0787,-80.2041,
62,hilo,US,75.27,overcast clouds,19.7297,-155.09,
63,muros,ES,61.68,overcast clouds,42.7762,-9.0603,
64,mataura,NZ,52.83,overcast clouds,-46.1927,168.8643,
65,elwood,AU,63.93,scattered clouds,-37.8817,144.983,
66,kimbe,PG,75.54,broken clouds,-5.5502,150.1429,
67,la cruz,MX,74.25,clear sky,23.9167,-106.9,
68,andilamena,MG,69.03,moderate rain,-17.0167,48.5833,
69,biograd na moru,HR,55.76,overcast clouds,43.9433,15.4519,
70,muli,MV,80.26,overcast clouds,2.9167,73.5667,
71,ozernovskiy,RU,32.43,snow,51.5,156.5167,
72,alice springs,AU,69.35,moderate rain,-23.7,133.8833,
73,quatre cocos,MU,78.1,overcast clouds,-20.2078,57.7625,
74,ribeira grande,PT,63.0,few clouds,38.5167,-28.7,
75,butaritari,KI,81.32,overcast clouds,3.0707,172.7902,
76,bayji,IQ,56.41,overcast clouds,34.9311,43.487,
77,raudeberg,NO,38.07,light snow,61.9875,5.1352,
78,qui nhon,VN,70.11,overcast clouds,13.7667,109.2333,
80,arcata,US,50.61,mist,40.8665,-124.0828,
82,guerrero negro,MX,64.36,clear sky,27.9769,-114.0611,
83,puerto ayora,EC,78.76,overcast clouds,-0.7393,-90.3518,
84,klaksvik,FO,34.72,light snow,62.2266,-6.589,
85,tuatapere,NZ,51.13,broken clouds,-46.1333,167.6833,
87,bougouni,ML,87.93,overcast clouds,11.417,-7.479,
88,arraial do cabo,BR,78.76,broken clouds,-22.9661,-42.0278,
89,coolum beach,AU,68.11,overcast clouds,-26.5333,153.1,
93,wynyard,AU,52.99,clear sky,-41.0,145.7167,
94,vaini,TO,77.16,few clouds,-21.2,-175.2,
96,morant bay,JM,88.72,clear sky,17.8815,-76.4093,
97,kumluca,TR,57.16,clear sky,36.3703,30.2869,
98,saldanha,ZA,66.34,scattered clouds,-33.0117,17.9442,
101,fontenay-le-comte,FR,57.65,overcast clouds,46.5833,-1.0,
102,chuy,UY,78.76,few clouds,-33.6971,-53.4616,
104,dayong,CN,47.52,clear sky,25.0209,118.2898,
105,nishihara,JP,58.28,overcast clouds,26.1842,127.7558,
106,roald,NO,39.76,broken clouds,62.5833,6.1333,
107,kodiak,US,36.91,moderate rain,57.79,-152.4072,
108,lebu,CL,62.42,broken clouds,-37.6167,-73.65,
109,agadez,NE,61.9,clear sky,19.75,10.25,
110,mulki,IN,78.08,clear sky,13.1,74.8,
111,kaitangata,NZ,49.05,scattered clouds,-46.2817,169.8464,
112,coihaique,CL,57.81,light rain,-45.5752,-72.0662,
115,ahmadpur east,PK,60.94,clear sky,29.1431,71.2598,
116,ponnani,IN,76.32,overcast clouds,10.767,75.9252,
117,kalabo,ZM,71.94,light rain,-14.97,22.6814,
118,piranhas,BR,87.08,few clouds,-16.4269,-51.8222,
122,nikolskoye,RU,35.8,overcast clouds,59.7035,30.7861,
123,kununurra,AU,78.78,light rain,-15.7667,128.7333,
124,saint-philippe,RE,80.19,overcast clouds,-21.3585,55.7679,
125,somerset,US,44.22,moderate rain,40.5668,-74.5496,
126,hithadhoo,MV,81.93,overcast clouds,-0.6,73.0833,
127,atuona,PF,78.71,light rain,-9.8,-139.0333,
128,laguna,US,44.58,mist,38.421,-121.4238,
129,el vigia,VE,83.3,scattered clouds,8.6219,-71.6506,
131,tsiroanomandidy,MG,68.85,overcast clouds,-18.7667,46.0333,
133,rockhampton,AU,67.89,broken clouds,-23.3833,150.5,
134,lata,PT,61.07,overcast clouds,40.1629,-8.3327,
135,bhongir,IN,65.5,scattered clouds,17.5108,78.8889,
136,yagoua,CM,77.0,overcast clouds,10.3411,15.2329,
138,yulara,AU,67.17,overcast clouds,-25.2406,130.9889,
139,port elizabeth,ZA,79.09,clear sky,-33.918,25.5701,
140,santa marta,CO,86.05,few clouds,11.2408,-74.199,
142,porto santo,PT,68.38,scattered clouds,33.072,-16.3415,
144,hobart,AU,56.05,scattered clouds,-42.8794,147.3294,
145,lompoc,US,64.78,broken clouds,34.6391,-120.4579,
147,kamalpur,IN,60.89,scattered clouds,24.2,91.8333,
148,esperance,AU,58.87,scattered clouds,-33.8667,121.9,
150,georgetown,MY,79.9,few clouds,5.4112,100.3354,
151,victoria,HK,65.25,clear sky,22.2855,114.1577,
152,pacific grove,US,52.09,clear sky,36.6177,-121.9166,
153,ribas do rio pardo,BR,89.33,few clouds,-20.4431,-53.7592,
154,nouadhibou,MR,82.38,clear sky,20.931,-17.0347,
156,maues,BR,76.95,overcast clouds,-3.3836,-57.7186,
157,gharghoda,IN,61.79,broken clouds,22.1667,83.35,
160,sao sebastiao,BR,71.83,broken clouds,-23.76,-45.4097,
161,paris,FR,55.15,light rain,48.8534,2.3488,
163,kavieng,PG,81.95,overcast clouds,-2.5744,150.7967,
164,bambous virieux,MU,78.22,few clouds,-20.3428,57.7575,
165,acapulco,MX,78.62,clear sky,16.8634,-99.8901,
167,mtwara,TZ,83.53,scattered clouds,-10.2667,40.1833,
170,yangjiang,CN,55.85,clear sky,21.85,111.9667,
171,ponta do sol,PT,73.0,clear sky,32.6667,-17.1,
172,bluff,NZ,55.65,overcast clouds,-46.6,168.3333,
173,bijie,CN,38.16,overcast clouds,27.3125,105.2942,
174,porto novo,BJ,85.82,broken clouds,6.4965,2.6036,
179,kalianget,ID,79.74,light rain,-7.05,113.9333,
180,alofi,NU,73.29,light rain,-19.0595,-169.9187,
184,pocao de pedras,BR,87.64,broken clouds,-4.6667,-44.85,
185,rio grande,BR,84.31,few clouds,-32.035,-52.0986,
186,praia da vitoria,PT,64.65,few clouds,38.7333,-27.0667,
187,taoudenni,ML,75.96,clear sky,22.6783,-3.9836,
190,bairiki,KI,80.6,broken clouds,1.3292,172.9752,
191,esqueda,MX,56.43,clear sky,30.7167,-109.5833,
192,shingu,JP,37.22,scattered clouds,33.7333,135.9833,
193,san patricio,US,60.66,scattered clouds,28.017,-97.5169,
195,komsomolskiy,UZ,36.32,fog,40.4272,71.7189,
197,kloulklubed,PW,75.7,overcast clouds,7.0419,134.2556,
199,constantine,DZ,56.61,scattered clouds,36.365,6.6147,
201,nouakchott,MR,89.53,clear sky,18.0858,-15.9785,
202,kalaswala,PK,48.16,few clouds,32.2009,74.6491,
206,luena,AO,62.98,overcast clouds,-11.7833,19.9167,
207,sehore,IN,66.47,clear sky,23.2,77.0833,
208,merauke,ID,79.72,overcast clouds,-8.4667,140.3333,
209,baiao,BR,81.36,overcast clouds,-2.7906,-49.6717,
213,meulaboh,ID,78.04,broken clouds,4.1363,96.1285,
214,chiredzi,ZW,73.02,scattered clouds,-21.05,31.6667,
215,tabas,IR,48.42,broken clouds,33.5959,56.9244,
216,cap malheureux,MU,78.48,overcast clouds,-19.9842,57.6142,
218,methoni,GR,56.21,clear sky,36.8197,21.7049,
219,sao joao da barra,BR,78.89,broken clouds,-21.6403,-41.0511,
220,dingle,PH,75.11,overcast clouds,10.9995,122.6711,
221,kamra,PK,44.96,clear sky,33.7473,73.5111,
222,kirakira,SB,80.42,overcast clouds,-10.4544,161.9205,
225,andijon,UZ,36.68,overcast clouds,40.7821,72.3442,
227,paita,PE,76.23,broken clouds,-5.0892,-81.1144,
228,esna,EG,61.68,broken clouds,25.2934,32.554,
229,callaguip,PH,71.29,overcast clouds,18.0714,120.4867,
230,miandrivazo,MG,75.94,overcast clouds,-19.5167,45.4667,
231,kologriv,RU,33.13,overcast clouds,58.8275,44.3178,
232,tomar,PT,64.42,overcast clouds,39.602,-8.4092,
233,joaima,BR,77.94,overcast clouds,-16.6542,-41.0306,
234,faanui,PF,80.38,light rain,-16.4833,-151.75,
239,santa cruz del sur,CU,83.59,light rain,20.7147,-77.9956,
241,havelock,US,64.38,mist,34.8791,-76.9013,
242,kabo,CF,81.79,broken clouds,7.6994,18.629,
243,buala,SB,79.43,moderate rain,-8.145,159.5921,
244,avera,US,44.11,overcast clouds,33.194,-82.5271,
246,port lincoln,AU,60.62,broken clouds,-34.7333,135.8667,
247,kahului,US,69.84,clear sky,20.8947,-156.47,
248,lagoa,PT,59.63,overcast clouds,39.05,-27.9833,
249,maridi,SS,83.95,broken clouds,4.9158,29.4742,
251,salalah,OM,77.09,scattered clouds,17.0151,54.0924,
252,diamantino,BR,88.3,overcast clouds,-14.4086,-56.4461,
253,arlit,NE,68.4,few clouds,18.7369,7.3853,
254,tenosique,MX,79.65,clear sky,17.4833,-91.4333,
256,coquimbo,CL,67.73,clear sky,-29.9533,-71.3436,
257,zaraza,VE,88.25,few clouds,9.3503,-65.3245,
258,manggar,ID,80.26,overcast clouds,-2.8833,108.2667,
259,nizza monferrato,IT,56.28,overcast clouds,44.7738,8.3539,
260,valparaiso,CL,80.83,clear sky,-33.0393,-71.6273,
261,barra patuca,HN,82.69,clear sky,15.8,-84.2833,
263,washim,IN,69.98,clear sky,20.1,77.15,
264,mayo,US,41.95,moderate rain,38.8876,-76.5119,
265,northam,GB,51.39,overcast clouds,51.0333,-4.2167,
266,torbay,CA,32.58,broken clouds,47.6666,-52.7314,
267,jucas,BR,88.38,overcast clouds,-6.5253,-39.5275,
269,samarai,PG,83.08,overcast clouds,-10.6167,150.6667,
270,dahuk,IQ,48.25,few clouds,36.8695,42.994,
271,sao filipe,CV,78.06,clear sky,14.8961,-24.4956,
274,santa isabel do rio negro,BR,82.4,broken clouds,-0.4139,-65.0192,
275,loudi,CN,45.68,overcast clouds,27.7344,111.9944,
279,konevo,RU,33.04,overcast clouds,62.1215,39.3192,
281,hervey bay,AU,70.84,overcast clouds,-25.2986,152.8535,
282,riyadh,SA,69.94,overcast clouds,24.6877,46.7219,
283,marawi,PH,68.49,heavy intensity rain,7.9986,124.2928,
285,necochea,AR,88.66,broken clouds,-38.5473,-58.7368,
287,caravelas,BR,75.51,heavy intensity rain,-17.7125,-39.2481,
289,morgantown,US,42.31,overcast clouds,39.6295,-79.9559,
292,lepe,ES,63.1,clear sky,37.2548,-7.2043,
293,sarangani,PH,83.16,scattered clouds,5.4033,125.4636,
294,keti bandar,PK,71.4,clear sky,24.1447,67.4497,
296,san nicolas,PH,70.63,overcast clouds,18.1725,120.5953,
298,goderich,CA,37.9,overcast clouds,43.7501,-81.7165,
299,vallenar,CL,87.82,clear sky,-28.5708,-70.7581,
300,burgersdorp,ZA,80.53,broken clouds,-30.9977,26.3286,
301,kavaratti,IN,81.63,scattered clouds,10.5669,72.642,
302,palmerston,AU,80.58,heavy intensity shower rain,-12.486,130.9833,
303,rzhyshchiv,UA,33.67,overcast clouds,49.9689,31.0463,
304,jacareacanga,BR,75.06,overcast clouds,-6.2222,-57.7528,
306,russell,US,47.48,overcast clouds,32.3502,-85.1999,
308,vega de alatorre,MX,74.44,clear sky,20.0333,-96.6333,
309,kalakamati,BW,69.28,clear sky,-20.5929,27.3121,
310,port macquarie,AU,64.89,light rain,-31.4333,152.9167,
313,butajira,ET,65.39,overcast clouds,8.1167,38.3667,
314,dwarka,IN,72.68,clear sky,22.2394,68.9678,
315,diego de almagro,CL,82.69,clear sky,-26.3667,-70.05,
317,tela,HN,79.03,overcast clouds,15.7833,-87.45,
319,teahupoo,PF,73.36,light rain,-17.8333,-149.2667,
320,changde,CN,43.07,overcast clouds,29.0464,111.6783,
321,barddhaman,IN,64.45,scattered clouds,23.25,87.85,
323,cabo san lucas,MX,73.51,clear sky,22.8909,-109.9124,
324,arcelia,MX,83.95,clear sky,18.2833,-100.2667,
325,grand-lahou,CI,82.56,scattered clouds,5.1367,-5.0242,
327,constitucion,CL,68.4,few clouds,-35.3333,-72.4167,
328,araxa,BR,80.56,clear sky,-19.5933,-46.9406,
329,santiago,CL,83.55,clear sky,-33.4569,-70.6483,
330,kruisfontein,ZA,73.96,clear sky,-34.0033,24.7314,
332,vila franca do campo,PT,65.19,light rain,37.7167,-25.4333,
333,aves,PT,61.34,overcast clouds,41.3703,-8.4101,
334,san vicente,AR,83.55,scattered clouds,-26.6167,-54.1333,
335,shahr-e babak,IR,43.05,clear sky,30.1165,55.1186,
337,port pirie,AU,65.97,broken clouds,-33.1833,138.0167,
338,utete,TZ,74.8,light rain,-7.986,38.758,
339,roebourne,AU,77.27,clear sky,-20.7833,117.1333,
342,calamar,CO,89.2,few clouds,10.2511,-74.9146,
343,kalmunai,LK,75.27,overcast clouds,7.4167,81.8167,
344,worcester,US,35.56,few clouds,42.3334,-71.8328,
347,bethel,US,39.88,few clouds,41.3712,-73.414,
348,adrar,MR,77.11,clear sky,20.5022,-10.0711,
349,flinders,AU,61.18,overcast clouds,-34.5833,150.8552,
350,tonj,SS,87.26,overcast clouds,7.2737,28.6822,
352,cidreira,BR,74.07,clear sky,-30.1811,-50.2056,
354,tura,IN,58.71,few clouds,25.5198,90.2201,
355,luganville,VU,79.88,overcast clouds,-15.5333,167.1667,
358,leer,DE,45.97,broken clouds,53.2316,7.461,
360,fare,PF,80.2,light rain,-16.7,-151.0167,
362,bandarbeyla,SO,77.52,scattered clouds,9.4942,50.8122,
363,marzuq,YE,62.31,few clouds,14.4,46.4667,
364,hasaki,JP,46.8,scattered clouds,35.7333,140.8333,
365,belmonte,BR,80.37,moderate rain,-15.8631,-38.8828,
366,ishinomaki,JP,41.25,broken clouds,38.4167,141.3,
368,vila velha,BR,78.75,overcast clouds,-20.3297,-40.2925,
370,uruzgan,AF,36.86,clear sky,32.8333,66.0,
371,faya,SA,59.11,clear sky,18.3851,42.4509,
372,namatanai,PG,78.93,light rain,-3.6667,152.4333,
375,vatne,NO,35.44,light snow,62.5667,6.65,
376,moree,AU,76.6,light rain,-29.4667,149.85,
378,cabedelo,BR,86.67,overcast clouds,-6.9811,-34.8339,
380,hluti,SZ,67.64,clear sky,-27.2167,31.6167,
382,geraldton,AU,66.61,clear sky,-28.7667,114.6,
383,pasighat,IN,63.07,broken clouds,28.0667,95.3333,
384,ovalle,CL,87.01,clear sky,-30.5983,-71.2003,
385,acarau,BR,84.79,light rain,-2.8856,-40.12,
386,buchanan,LR,82.71,overcast clouds,5.8808,-10.0467,
387,luau,AO,65.25,light rain,-10.7073,22.2247,
388,camacha,PT,65.62,scattered clouds,33.0833,-16.3333,
389,balabac,PH,80.33,overcast clouds,7.9868,117.0645,
390,comodoro rivadavia,AR,73.26,clear sky,-45.8667,-67.5,
391,sao miguel do araguaia,BR,79.57,overcast clouds,-13.275,-50.1628,
392,wanning,CN,61.93,overcast clouds,18.8003,110.3967,
393,monte alegre,BR,82.15,moderate rain,-2.0078,-54.0692,
395,kutum,SD,71.24,overcast clouds,14.2,24.6667,
396,kaka,TM,38.86,overcast clouds,37.3482,59.6143,
397,somanda,TZ,66.36,moderate rain,-3.3667,33.95,
398,sola,VU,82.94,broken clouds,-13.8833,167.55,
399,lucapa,AO,65.97,light rain,-8.4192,20.7447,
400,torrington,US,39.18,overcast clouds,41.8007,-73.1212,
401,aloleng,PH,75.7,overcast clouds,16.1307,119.7824,
402,arusha,TZ,74.97,broken clouds,-3.3667,36.6833,
403,palmer,US,40.64,broken clouds,42.1584,-72.3287,
405,pisco,PE,73.45,clear sky,-13.7,-76.2167,
406,obihiro,JP,33.69,snow,42.9172,143.2044,
407,nichinan,JP,38.71,scattered clouds,31.6,131.3667,
408,zaozerne,UA,44.58,scattered clouds,45.1582,33.2787,
410,mantua,IT,47.01,overcast clouds,45.1667,10.7833,
411,angoche,MZ,75.16,overcast clouds,-16.2325,39.9086,
412,los llanos de aridane,ES,71.13,few clouds,28.6585,-17.9182,
415,port hawkesbury,CA,35.19,overcast clouds,45.6169,-61.3485,
416,manicore,BR,83.5,overcast clouds,-5.8092,-61.3003,
417,opotiki,NZ,62.38,scattered clouds,-38.0833,177.2833,
419,mount gambier,AU,55.54,scattered clouds,-37.8333,140.7667,
420,jumla,NP,35.74,clear sky,29.2747,82.1838,
421,nsanje,MW,72.48,light rain,-16.92,35.262,
422,saint-joseph,RE,77.38,overcast clouds,-21.3667,55.6167,
423,gao,ML,74.41,broken clouds,16.6362,1.637,
424,hesperia,US,58.46,broken clouds,34.4264,-117.3009,
425,gizo,SB,82.06,light rain,-8.103,156.8419,
426,inongo,CD,74.35,overcast clouds,-1.95,18.2667,
427,gondanglegi,ID,76.3,overcast clouds,-7.7479,112.0132,
429,sangareddi,IN,64.72,clear sky,17.6294,78.0917,
430,jos,NG,74.5,scattered clouds,9.9167,8.9,
431,ambilobe,MG,76.82,light rain,-13.2,49.05,
433,sattur,IN,75.52,overcast clouds,9.3667,77.9333,
434,richmond,US,42.78,moderate rain,37.5538,-77.4603,
437,mount isa,AU,83.97,light rain,-20.7333,139.5,
439,kudahuvadhoo,MV,79.65,overcast clouds,2.6708,72.8944,
440,alta floresta,BR,76.1,overcast clouds,-9.8756,-56.0861,
441,ixtapa,MX,67.23,clear sky,20.7,-105.2,
443,batemans bay,AU,61.11,few clouds,-35.7167,150.1833,
444,puerto ayacucho,VE,89.47,scattered clouds,5.6639,-67.6236,
446,whitehaven,GB,41.65,overcast clouds,54.549,-3.5841,
449,antofagasta,CL,70.88,clear sky,-23.65,-70.4,
452,kinkala,CG,73.15,light rain,-4.3614,14.7644,
453,hurup,DK,43.72,broken clouds,56.7494,8.4195,
455,puerto escondido,MX,83.23,few clouds,15.85,-97.0667,
456,nhulunbuy,AU,81.21,overcast clouds,-12.2333,136.7667,
457,margate,GB,51.91,overcast clouds,51.3813,1.3862,
458,norre alslev,DK,41.77,overcast clouds,54.8978,11.8841,
459,salihorsk,BY,33.73,overcast clouds,52.7876,27.5415,
460,dargaville,NZ,56.23,clear sky,-35.9333,173.8833,
461,haapiti,PF,78.53,light rain,-17.5667,-149.8667,
462,biak,ID,76.89,broken clouds,-0.9131,122.8766,
463,apartado,CO,87.66,few clouds,7.883,-76.6259,
464,salinopolis,BR,81.16,broken clouds,-0.6136,-47.3561,
465,mvuma,ZW,61.45,overcast clouds,-19.2792,30.5283,
467,nelson bay,AU,66.0,light rain,-32.7167,152.15,
468,iquique,CL,73.44,clear sky,-20.2208,-70.1431,
469,touros,BR,85.26,scattered clouds,-5.1989,-35.4608,
472,agliana,IT,55.71,mist,43.9066,11.0062,
473,scarborough,GB,44.17,overcast clouds,54.2797,-0.4044,
474,katsuura,JP,47.1,clear sky,35.1333,140.3,
475,santa cruz de la palma,ES,75.15,few clouds,28.6835,-17.7642,
476,naze,JP,49.12,light rain,28.3667,129.4833,
477,kita,ML,86.86,overcast clouds,13.0349,-9.4895,
478,aquin,HT,81.52,clear sky,18.2833,-73.4,
479,san cristobal,VE,75.38,few clouds,7.7669,-72.225,
480,nakur,IN,51.51,clear sky,29.9167,77.3,
481,birao,CF,81.18,overcast clouds,10.2849,22.7882,
482,memmingen,DE,50.02,broken clouds,47.9837,10.1853,
484,dhidhdhoo,MV,81.34,overcast clouds,6.8833,73.1,
485,pahrump,US,39.25,overcast clouds,36.2083,-115.9839,
486,port keats,AU,77.25,moderate rain,-14.25,129.55,
487,sale,MA,65.08,few clouds,34.0389,-6.8166,
488,san jose,US,53.58,haze,37.3394,-121.895,
489,ginda,IN,42.22,clear sky,30.6945,78.4932,
492,pochutla,MX,83.82,clear sky,15.7432,-96.4661,
494,cayenne,GF,84.24,broken clouds,4.9333,-52.3333,
496,coahuayana,MX,85.66,clear sky,18.7333,-103.6833,
497,auki,SB,77.92,overcast clouds,-8.7676,160.7034,
498,richards bay,ZA,70.75,clear sky,-28.783,32.0377,
500,kamennomostskiy,RU,34.05,clear sky,44.2983,40.1856,
501,atar,MR,81.18,clear sky,20.5169,-13.0499,
502,alyangula,AU,81.7,overcast clouds,-13.8483,136.4192,
503,terenos,BR,87.51,scattered clouds,-20.4422,-54.8603,
505,kamaishi,JP,41.9,broken clouds,39.2667,141.8833,
506,kuching,MY,80.04,moderate rain,1.55,110.3333,
507,bria,CF,82.58,scattered clouds,6.5423,21.9863,
508,wanaka,NZ,55.11,scattered clouds,-44.7,169.15,
510,ngunguru,NZ,59.25,clear sky,-35.6167,174.5,
511,te anau,NZ,50.67,overcast clouds,-45.4167,167.7167,
513,sechura,PE,81.27,scattered clouds,-5.5569,-80.8222,
514,ierapetra,GR,58.14,overcast clouds,35.01,25.7353,
515,ferrol,ES,64.92,overcast clouds,43.4832,-8.2369,
516,koumra,TD,79.39,broken clouds,8.9126,17.5539,
517,barberton,ZA,71.69,clear sky,-25.7884,31.0532,
518,makakilo city,US,69.01,clear sky,21.3469,-158.0858,
519,haimen,CN,55.29,clear sky,23.1935,116.6142,
520,mezhgorye,UA,37.45,broken clouds,44.9667,34.4167,
521,syriam,MM,78.91,few clouds,16.7722,96.2378,
523,biltine,TD,75.88,few clouds,14.5333,20.9167,
524,kidal,ML,73.45,broken clouds,18.4411,1.4078,
525,wanxian,CN,51.22,overcast clouds,30.8039,108.3897,
526,sur,OM,72.14,scattered clouds,22.5667,59.5289,
527,qandala,SO,76.96,overcast clouds,11.472,49.8728,
528,canete,CL,63.48,overcast clouds,-37.8,-73.4,
530,mahanoro,MG,73.2,light rain,-19.9,48.8,
531,huarmey,PE,75.52,scattered clouds,-10.0681,-78.1522,
532,ciudad bolivar,VE,87.08,overcast clouds,8.1222,-63.5497,
533,muisne,EC,78.35,overcast clouds,0.6,-80.0333,
535,ternate,ID,81.73,scattered clouds,0.8,127.4,
536,hwange,ZW,76.37,overcast clouds,-18.3693,26.5019,
537,sobolevo,RU,33.26,overcast clouds,54.4299,31.8996,
538,xinyu,CN,41.88,clear sky,27.8043,114.9334,
539,port blair,IN,82.44,mist,11.6667,92.75,
540,souillac,MU,77.38,few clouds,-20.5167,57.5167,
541,gelgaudiskis,LT,35.74,overcast clouds,55.0792,22.9758,
542,grand gaube,MU,77.4,overcast clouds,-20.0064,57.6608,
543,tabuk,PH,65.23,light rain,17.4189,121.4443,
544,ryotsu,JP,41.04,broken clouds,38.0833,138.4333,
545,acajutla,SV,84.72,clear sky,13.5928,-89.8275,
546,lasa,IT,45.48,few clouds,46.6166,10.7002,
547,kaili,ID,66.6,overcast clouds,-3.4626,120.2147,
548,stornoway,GB,44.56,broken clouds,58.2093,-6.3865,
549,saint-georges,GD,82.08,few clouds,12.0564,-61.7485,
550,choix,MX,73.11,clear sky,26.7092,-108.3219,
551,meadow lake,US,47.61,clear sky,34.8014,-106.5436,
553,koumac,NC,77.76,clear sky,-20.5667,164.2833,
555,noumea,NC,79.0,clear sky,-22.2763,166.4572,
556,dunedin,NZ,56.8,overcast clouds,-45.8742,170.5036,
557,laterza,IT,52.25,few clouds,40.6295,16.7997,
558,gat,IL,62.82,clear sky,31.61,34.7642,
559,najran,SA,68.65,clear sky,17.4924,44.1277,
561,ankang,CN,42.49,scattered clouds,32.68,109.0172,
562,ivot,RU,33.13,overcast clouds,53.6756,34.1872,
563,honiara,SB,78.33,overcast clouds,-9.4333,159.95,
564,bobrovytsya,UA,32.77,overcast clouds,50.75,31.3833,
565,lleida,ES,59.9,clear sky,41.6167,0.6167,
566,cockburn town,TC,82.36,scattered clouds,21.4612,-71.1419,
569,astrea,CO,89.85,clear sky,9.4983,-73.9759,
570,huangmei,CN,34.56,clear sky,30.1924,116.025,
571,innisfail,AU,75.85,overcast clouds,-17.5333,146.0333,
572,saint-francois,FR,51.24,light rain,46.4154,3.9054,
573,balkanabat,TM,40.66,clear sky,39.5108,54.3671,
574,broome,US,34.02,snow,42.2506,-75.833,
575,kinablangan,PH,78.1,broken clouds,7.6947,126.5503,
577,bom sucesso,BR,74.66,broken clouds,-21.0331,-44.7581,
578,tomatlan,MX,85.53,clear sky,19.9333,-105.25,
580,bara,NG,82.18,scattered clouds,10.3744,10.7288,
581,guacimo,CR,86.04,scattered clouds,10.2104,-83.6807,
582,anito,PH,77.0,broken clouds,12.4497,125.2886,
583,ancud,CL,58.35,broken clouds,-41.8697,-73.8203,
585,bambanglipuro,ID,77.4,light rain,-7.95,110.2833,
586,tete,MZ,73.49,light rain,-16.1564,33.5867,
587,xichang,CN,44.19,overcast clouds,27.8964,102.2634,
588,matara,LK,76.08,broken clouds,5.9485,80.5353,
589,morondava,MG,79.75,light rain,-20.2833,44.2833,
590,guarumal,PA,86.09,scattered clouds,8.35,-82.5333,
591,novikovo,RU,35.42,overcast clouds,51.1537,37.8879,
592,gorbatovka,RU,33.75,overcast clouds,56.2531,43.7475,
593,aras,ES,57.76,scattered clouds,42.5617,-2.356,
595,chokwe,MZ,71.96,clear sky,-24.5333,32.9833,
596,vila do maio,CV,81.39,clear sky,15.1333,-23.2167,
599,kungsbacka,SE,42.75,overcast clouds,57.4872,12.0761,
602,hirara,JP,60.08,scattered clouds,24.8,125.2833,
603,mount darwin,ZW,69.12,overcast clouds,-16.7725,31.5838,
604,san isidro,PE,71.19,broken clouds,-12.1167,-77.05,
605,vetluzhskiy,RU,33.13,overcast clouds,58.3902,45.4654,
606,iguape,BR,75.87,few clouds,-24.7081,-47.5553,
608,karimpur,IN,63.93,few clouds,23.9667,88.6167,
609,emerald,AU,64.35,overcast clouds,-23.5333,148.1667,
610,griffith,US,34.29,overcast clouds,41.5284,-87.4237,
612,inyonga,TZ,64.69,light rain,-6.7167,32.0667,
613,neyshabur,IR,37.08,overcast clouds,36.2133,58.7958,
615,atlantic beach,US,53.85,mist,30.3344,-81.3987,
616,kattivakkam,IN,78.89,overcast clouds,13.2167,80.3167,
619,ewa beach,US,70.43,clear sky,21.3156,-158.0072,
620,bogale,MM,73.71,broken clouds,16.2833,95.4,
621,puruaran,MX,77.27,clear sky,19.1,-101.5333,
623,salinas,US,52.5,clear sky,36.6777,-121.6555,
625,jackson,US,41.79,fog,42.4165,-122.8345,
626,kamiiso,JP,39.51,overcast clouds,41.8167,140.65,
629,vikindu,TZ,82.04,few clouds,-7.0067,39.2985,
630,nemuro,JP,36.91,light rain,43.3236,145.575,
631,hermosillo,MX,64.24,clear sky,29.0667,-110.9667,
634,martapura,ID,77.09,moderate rain,-3.4167,114.85,
635,okara,PK,55.8,scattered clouds,30.8081,73.4458,
636,san blas,MX,73.29,clear sky,21.5167,-105.2667,
639,kolaras,IN,60.26,clear sky,25.2333,77.6,
641,pokhara,NP,55.6,clear sky,28.2333,83.9833,
646,batouri,CM,80.13,few clouds,4.4333,14.3667,
647,taguatinga,BR,79.32,overcast clouds,-12.3857,-46.5711,
648,chaman,PK,41.77,clear sky,30.9236,66.4512,
649,denpasar,ID,76.71,mist,-8.65,115.2167,
650,jadu,LY,52.61,clear sky,31.953,12.0261,
651,alenquer,BR,82.13,moderate rain,-1.9417,-54.7383,
652,areosa,PT,60.89,overcast clouds,41.7178,-8.8571,
654,suluq,LY,61.95,broken clouds,31.6682,20.2521,
655,dhadar,IN,56.5,clear sky,28.3305,75.0632,
656,weligama,LK,75.92,broken clouds,5.9667,80.4167,
657,lebanon,US,48.9,overcast clouds,36.2081,-86.2911,
659,novyy starodub,UA,38.37,overcast clouds,48.5158,33.1733,
661,carutapera,BR,81.25,overcast clouds,-1.195,-46.02,
662,evansville,US,45.18,mist,37.9748,-87.5558,
663,tembisa,ZA,75.29,clear sky,-25.9964,28.2268,
664,livingstone,ZM,78.19,overcast clouds,-17.8419,25.8543,
668,soe,ID,66.51,overcast clouds,-9.8607,124.284,
669,fukue,JP,40.59,overcast clouds,32.6881,128.8419,
671,kohlu,PK,45.54,clear sky,29.8962,69.252,
673,tessalit,ML,72.28,overcast clouds,20.1986,1.0114,
675,ballina,AU,65.32,broken clouds,-28.8667,153.5667,
676,arona,ES,69.12,clear sky,28.0996,-16.681,Hotel Rural La Correa
