City_ID,City,Country,Lat,Lng,Max Temp,Humidity,Cloudiness,Wind Speed,Current Description
0,novyy urengoy,RU,66.0833,76.6333,-9.47,93,38,9.84,scattered clouds
1,kapaa,US,22.0752,-159.319,71.58,88,0,5.75,light rain
2,avarua,CK,-21.2078,-159.775,77.05,88,75,6.91,broken clouds
3,araouane,ML,18.9048,-3.5265,75.72,17,94,11.23,overcast clouds
4,nisia floresta,BR,-6.0911,-35.2086,85.01,50,81,12.35,light rain
5,jamestown,US,42.097,-79.2353,38.79,63,100,9.22,overcast clouds
6,barrow,US,71.2906,-156.7887,15.82,86,100,9.22,overcast clouds
7,codrington,AU,-38.2667,141.9667,55.69,95,1,4.34,clear sky
8,ushuaia,AR,-54.8,-68.3,60.46,63,0,5.75,clear sky
9,saint george,US,37.1041,-113.5841,28.99,80,0,0.0,clear sky
10,cape town,ZA,-33.9258,18.4232,75.9,62,0,13.8,clear sky
11,pevek,RU,69.7008,170.3133,-0.31,78,0,2.64,clear sky
12,bathsheba,BB,13.2167,-59.5167,86.61,77,20,24.16,few clouds
13,vao,NC,-22.6667,167.4833,78.28,77,17,10.65,moderate rain
14,albany,US,42.6001,-73.9662,33.26,78,100,1.99,overcast clouds
15,rincon,US,32.296,-81.2354,46.85,87,100,8.05,overcast clouds
16,punta arenas,CL,-53.15,-70.9167,60.82,87,100,8.05,light rain
17,ostrovnoy,RU,68.0531,39.5131,20.77,88,100,9.26,overcast clouds
18,arzamas,RU,55.3949,43.8399,32.34,98,100,11.41,light snow
19,east london,ZA,-33.0153,27.9116,77.94,69,0,14.97,clear sky
20,bredasdorp,ZA,-34.5322,20.0403,70.41,69,25,14.36,scattered clouds
21,ereymentau,KZ,51.6199,73.1033,-12.87,100,86,6.85,overcast clouds
22,castro,BR,-24.7911,-50.0119,65.93,69,91,6.04,overcast clouds
23,bilma,NE,18.6853,12.9164,65.95,29,35,10.92,scattered clouds
24,poniatowa,PL,51.1798,22.1309,37.31,96,100,14.41,overcast clouds
25,rikitea,PF,-23.1203,-134.9692,76.17,80,6,8.63,clear sky
26,finschhafen,PG,-6.6024,147.8681,79.88,80,100,5.59,overcast clouds
27,syamzha,RU,60.0158,41.0614,33.01,91,100,11.27,overcast clouds
28,khatanga,RU,71.9667,102.5,-23.53,91,9,4.09,clear sky
29,chokurdakh,RU,70.6333,147.9167,-14.49,100,14,1.92,few clouds
30,carnarvon,AU,-24.8667,113.6333,85.28,41,74,18.14,broken clouds
31,norman wells,CA,65.282,-126.8329,-27.36,75,40,5.75,scattered clouds
32,new norfolk,AU,-42.7826,147.0587,55.71,74,83,1.74,broken clouds
33,mpulungu,ZM,-8.7623,31.1141,71.26,87,95,1.48,light rain
34,port alfred,ZA,-33.5906,26.891,71.19,81,0,3.0,clear sky
35,dubai,AE,25.2582,55.3047,76.93,50,0,5.75,clear sky
36,arman,RU,59.7,150.1667,3.25,75,4,11.99,clear sky
37,lorengau,PG,-2.0226,147.2712,82.08,79,96,8.66,light rain
38,airai,TL,-8.9266,125.4092,60.03,94,98,2.19,overcast clouds
39,bengkulu,ID,-3.8004,102.2655,76.19,87,100,5.5,heavy intensity rain
40,varna,BG,43.2167,27.9167,42.87,100,0,3.44,clear sky
41,la ronge,CA,55.1001,-105.2842,-16.35,69,75,8.05,broken clouds
42,luderitz,NA,-26.6481,15.1594,68.32,82,1,15.82,clear sky
43,wawa,NG,9.9022,4.4192,83.91,21,67,6.2,broken clouds
44,carauari,BR,-4.8828,-66.8958,93.06,45,20,0.92,few clouds
45,vicuna,CL,-30.0319,-70.7081,88.77,29,0,9.13,clear sky
46,semey,KZ,50.4111,80.2275,-6.25,94,31,4.12,scattered clouds
47,busselton,AU,-33.65,115.3333,63.95,71,2,10.56,clear sky
48,mahebourg,MU,-20.4081,57.7,78.26,69,20,4.61,few clouds
49,mar del plata,AR,-38.0023,-57.5575,86.83,78,40,32.01,scattered clouds
50,hermanus,ZA,-34.4187,19.2345,70.81,81,49,9.01,scattered clouds
51,namibe,AO,-15.1961,12.1522,69.96,74,82,14.07,broken clouds
52,honningsvag,NO,70.9821,25.9704,26.35,80,100,13.8,light snow
53,azare,NG,11.6765,10.1948,71.19,23,10,8.41,clear sky
54,hutchinson,US,38.0608,-97.9298,-4.49,75,100,24.16,overcast clouds
55,thompson,CA,55.7435,-97.8558,-7.44,71,75,12.66,light snow
56,sao gabriel da cachoeira,BR,-0.1303,-67.0892,87.6,66,0,4.61,clear sky
57,san diego de la union,MX,21.4667,-100.8667,65.46,41,63,7.25,broken clouds
58,longyearbyen,SJ,78.2186,15.6401,22.84,63,40,12.66,scattered clouds
59,ahipara,NZ,-35.1667,173.1667,60.01,92,18,3.98,few clouds
60,fortuna,US,40.5982,-124.1573,50.34,98,20,6.91,few clouds
61,shelburne,CA,44.0787,-80.2041,32.76,97,100,12.28,overcast clouds
62,hilo,US,19.7297,-155.09,75.27,88,100,3.44,overcast clouds
63,muros,ES,42.7762,-9.0603,61.68,97,97,20.31,overcast clouds
64,mataura,NZ,-46.1927,168.8643,52.83,99,96,1.95,overcast clouds
65,elwood,AU,-37.8817,144.983,63.93,91,39,3.69,scattered clouds
66,kimbe,PG,-5.5502,150.1429,75.54,92,58,3.0,broken clouds
67,la cruz,MX,23.9167,-106.9,74.25,38,0,0.6,clear sky
68,andilamena,MG,-17.0167,48.5833,69.03,90,100,6.73,moderate rain
69,biograd na moru,HR,43.9433,15.4519,55.76,81,96,5.82,overcast clouds
70,muli,MV,2.9167,73.5667,80.26,76,100,5.68,overcast clouds
71,ozernovskiy,RU,51.5,156.5167,32.43,96,98,9.71,snow
72,alice springs,AU,-23.7,133.8833,69.35,100,100,6.91,moderate rain
73,quatre cocos,MU,-20.2078,57.7625,78.1,68,100,7.07,overcast clouds
74,ribeira grande,PT,38.5167,-28.7,63.0,67,20,24.16,few clouds
75,butaritari,KI,3.0707,172.7902,81.32,78,89,21.39,overcast clouds
76,bayji,IQ,34.9311,43.487,56.41,64,99,6.38,overcast clouds
77,raudeberg,NO,61.9875,5.1352,38.07,37,88,25.21,light snow
78,qui nhon,VN,13.7667,109.2333,70.11,81,100,13.78,overcast clouds
79,narsaq,GL,60.9167,-46.05,16.02,65,0,8.57,clear sky
80,arcata,US,40.8665,-124.0828,50.61,97,0,0.0,mist
81,leh,IN,34.1667,77.5833,9.91,33,10,1.23,clear sky
82,guerrero negro,MX,27.9769,-114.0611,64.36,38,0,1.05,clear sky
83,puerto ayora,EC,-0.7393,-90.3518,78.76,94,89,6.98,overcast clouds
84,klaksvik,FO,62.2266,-6.589,34.72,59,100,24.49,light snow
85,tuatapere,NZ,-46.1333,167.6833,51.13,94,58,1.92,broken clouds
86,undory,RU,54.6085,48.3928,31.24,97,100,16.6,light snow
87,bougouni,ML,11.417,-7.479,87.93,11,99,8.01,overcast clouds
88,arraial do cabo,BR,-22.9661,-42.0278,78.76,69,75,13.8,broken clouds
89,coolum beach,AU,-26.5333,153.1,68.11,84,99,4.29,overcast clouds
90,aykhal,RU,66.0,111.5,-16.26,87,100,8.14,overcast clouds
91,husavik,IS,66.0449,-17.3389,18.63,85,100,6.91,light snow
92,swift current,CA,50.2834,-107.8014,-26.59,68,20,23.02,haze
93,wynyard,AU,-41.0,145.7167,52.99,81,9,5.32,clear sky
94,vaini,TO,-21.2,-175.2,77.16,88,20,5.75,few clouds
95,olafsvik,IS,64.8945,-23.7142,28.8,62,60,16.35,broken clouds
96,morant bay,JM,17.8815,-76.4093,88.72,65,8,11.34,clear sky
97,kumluca,TR,36.3703,30.2869,57.16,60,1,3.51,clear sky
98,saldanha,ZA,-33.0117,17.9442,66.34,83,38,12.93,scattered clouds
99,juneau,US,58.3019,-134.4197,20.21,79,40,0.0,scattered clouds
100,iqaluit,CA,63.7506,-68.5145,6.53,85,75,4.61,fog
101,fontenay-le-comte,FR,46.5833,-1.0,57.65,95,100,21.54,overcast clouds
102,chuy,UY,-33.6971,-53.4616,78.76,48,13,14.23,few clouds
103,dikson,RU,73.5069,80.5464,-10.03,94,100,6.33,overcast clouds
104,dayong,CN,25.0209,118.2898,47.52,64,0,4.43,clear sky
105,nishihara,JP,26.1842,127.7558,58.28,56,100,29.93,overcast clouds
106,roald,NO,62.5833,6.1333,39.76,81,75,3.44,broken clouds
107,kodiak,US,57.79,-152.4072,36.91,87,100,34.52,moderate rain
108,lebu,CL,-37.6167,-73.65,62.42,66,81,10.27,broken clouds
109,agadez,NE,19.75,10.25,61.9,26,1,10.18,clear sky
110,mulki,IN,13.1,74.8,78.08,73,5,0.0,clear sky
111,kaitangata,NZ,-46.2817,169.8464,49.05,96,41,2.73,scattered clouds
112,coihaique,CL,-45.5752,-72.0662,57.81,50,40,14.97,light rain
113,sioux lookout,CA,50.1001,-91.917,-9.33,77,100,6.91,light snow
114,moron,AR,-34.6534,-58.6198,91.02,49,15,9.53,few clouds
115,ahmadpur east,PK,29.1431,71.2598,60.94,21,0,4.9,clear sky
116,ponnani,IN,10.767,75.9252,76.32,61,100,4.59,overcast clouds
117,kalabo,ZM,-14.97,22.6814,71.94,74,96,10.67,light rain
118,piranhas,BR,-16.4269,-51.8222,87.08,52,24,2.75,few clouds
119,west fargo,US,46.875,-96.9004,-14.75,76,100,17.27,haze
120,kargasok,RU,59.0556,80.8572,-22.38,99,50,5.97,scattered clouds
121,tasiilaq,GL,65.6145,-37.6368,14.16,56,2,6.24,clear sky
122,nikolskoye,RU,59.7035,30.7861,35.8,93,100,7.96,overcast clouds
123,kununurra,AU,-15.7667,128.7333,78.78,89,100,5.75,light rain
124,saint-philippe,RE,-21.3585,55.7679,80.19,77,99,9.51,overcast clouds
125,somerset,US,40.5668,-74.5496,44.22,84,100,5.75,moderate rain
126,hithadhoo,MV,-0.6,73.0833,81.93,71,100,17.43,overcast clouds
127,atuona,PF,-9.8,-139.0333,78.71,78,18,19.3,light rain
128,laguna,US,38.421,-121.4238,44.58,92,100,1.99,mist
129,el vigia,VE,8.6219,-71.6506,83.3,73,35,5.7,scattered clouds
130,severo-kurilsk,RU,50.6789,156.125,31.93,77,100,5.21,overcast clouds
131,tsiroanomandidy,MG,-18.7667,46.0333,68.85,89,86,3.4,overcast clouds
132,nanortalik,GL,60.1432,-45.2371,22.24,61,0,4.16,clear sky
133,rockhampton,AU,-23.3833,150.5,67.89,73,78,4.61,broken clouds
134,lata,PT,40.1629,-8.3327,61.07,93,99,3.53,overcast clouds
135,bhongir,IN,17.5108,78.8889,65.5,53,46,1.68,scattered clouds
136,yagoua,CM,10.3411,15.2329,77.0,23,100,6.96,overcast clouds
137,okhotsk,RU,59.3833,143.3,7.41,82,31,8.52,scattered clouds
138,yulara,AU,-25.2406,130.9889,67.17,80,97,11.81,overcast clouds
139,port elizabeth,ZA,-33.918,25.5701,79.09,65,0,5.75,clear sky
140,santa marta,CO,11.2408,-74.199,86.05,72,20,5.75,few clouds
141,fort morgan,US,40.2503,-103.8,-14.15,64,100,27.63,haze
142,porto santo,PT,33.072,-16.3415,68.38,77,40,9.22,scattered clouds
143,aklavik,CA,68.2191,-135.0107,-5.8,77,100,4.61,light snow
144,hobart,AU,-42.8794,147.3294,56.05,92,40,4.61,scattered clouds
145,lompoc,US,34.6391,-120.4579,64.78,73,75,9.22,broken clouds
146,lacolle,CA,45.0834,-73.3659,31.8,84,100,4.45,overcast clouds
147,kamalpur,IN,24.2,91.8333,60.89,80,30,1.05,scattered clouds
148,esperance,AU,-33.8667,121.9,58.87,76,37,9.8,scattered clouds
149,provideniya,RU,64.3833,-173.3,14.32,65,1,20.42,clear sky
150,georgetown,MY,5.4112,100.3354,79.9,91,20,3.44,few clouds
151,victoria,HK,22.2855,114.1577,65.25,36,0,11.01,clear sky
152,pacific grove,US,36.6177,-121.9166,52.09,88,0,4.61,clear sky
153,ribas do rio pardo,BR,-20.4431,-53.7592,89.33,35,14,8.66,few clouds
154,nouadhibou,MR,20.931,-17.0347,82.38,24,0,6.91,clear sky
155,yar-sale,RU,66.8333,70.8333,-10.25,91,7,10.49,clear sky
156,maues,BR,-3.3836,-57.7186,76.95,85,100,0.51,overcast clouds
157,gharghoda,IN,22.1667,83.35,61.79,32,51,2.28,broken clouds
158,huilong,CN,31.8111,121.655,27.93,36,1,19.98,clear sky
159,saskylakh,RU,71.9167,114.0833,-16.53,89,14,13.85,few clouds
160,sao sebastiao,BR,-23.76,-45.4097,71.83,89,83,5.95,broken clouds
161,paris,FR,48.8534,2.3488,55.15,95,100,12.66,light rain
162,paamiut,GL,61.994,-49.6678,12.87,60,0,8.32,clear sky
163,kavieng,PG,-2.5744,150.7967,81.95,78,86,10.74,overcast clouds
164,bambous virieux,MU,-20.3428,57.7575,78.22,69,20,4.61,few clouds
165,acapulco,MX,16.8634,-99.8901,78.62,65,0,5.75,clear sky
166,chunskiy,RU,56.0815,99.6342,17.62,76,100,11.54,overcast clouds
167,mtwara,TZ,-10.2667,40.1833,83.53,78,40,13.8,scattered clouds
168,aktash,RU,50.3,87.7333,-6.63,97,100,2.82,overcast clouds
169,aksu,CN,41.1231,80.2644,21.31,50,36,1.81,scattered clouds
170,yangjiang,CN,21.85,111.9667,55.85,39,0,6.33,clear sky
171,ponta do sol,PT,32.6667,-17.1,73.0,86,10,3.11,clear sky
172,bluff,NZ,-46.6,168.3333,55.65,89,91,4.54,overcast clouds
173,bijie,CN,27.3125,105.2942,38.16,97,100,2.35,overcast clouds
174,porto novo,BJ,6.4965,2.6036,85.82,60,61,8.77,broken clouds
175,tuktoyaktuk,CA,69.4541,-133.0374,-11.2,77,40,8.05,scattered clouds
176,verkhnyaya inta,RU,65.9811,60.3094,-3.91,87,88,8.46,overcast clouds
177,woodward,US,36.4337,-99.3904,0.63,88,100,27.67,overcast clouds
178,cherskiy,RU,68.75,161.3,-0.85,71,0,1.99,clear sky
179,kalianget,ID,-7.05,113.9333,79.74,83,100,7.76,light rain
180,alofi,NU,-19.0595,-169.9187,73.29,100,11,3.44,light rain
181,saint anthony,US,45.0205,-93.218,-5.22,73,0,18.41,clear sky
182,yellowknife,CA,62.456,-114.3525,-31.45,68,20,3.44,few clouds
183,urumqi,CN,43.801,87.6005,11.35,85,40,2.24,mist
184,pocao de pedras,BR,-4.6667,-44.85,87.64,58,73,3.4,broken clouds
185,rio grande,BR,-32.035,-52.0986,84.31,56,20,15.43,few clouds
186,praia da vitoria,PT,38.7333,-27.0667,64.65,59,20,19.89,few clouds
187,taoudenni,ML,22.6783,-3.9836,75.96,18,0,13.94,clear sky
188,rawson,AR,-43.3002,-65.1023,91.69,16,0,29.93,clear sky
189,ubinskoye,RU,55.3068,79.6802,-10.26,98,100,5.93,overcast clouds
190,bairiki,KI,1.3292,172.9752,80.6,83,75,18.41,broken clouds
191,esqueda,MX,30.7167,-109.5833,56.43,22,0,4.05,clear sky
192,shingu,JP,33.7333,135.9833,37.22,74,31,14.5,scattered clouds
193,san patricio,US,28.017,-97.5169,60.66,71,36,7.27,scattered clouds
194,qaanaaq,GL,77.484,-69.3632,-20.36,69,0,6.71,clear sky
195,komsomolskiy,UZ,40.4272,71.7189,36.32,80,100,4.61,fog
196,tornio,FI,65.8481,24.1466,24.82,98,100,4.88,overcast clouds
197,kloulklubed,PW,7.0419,134.2556,75.7,75,91,4.94,overcast clouds
198,derzhavinsk,KZ,51.1,66.3167,-4.14,92,26,6.26,scattered clouds
199,constantine,DZ,36.365,6.6147,56.61,67,40,8.05,scattered clouds
200,tiksi,RU,71.6872,128.8694,-9.56,94,99,6.42,overcast clouds
201,nouakchott,MR,18.0858,-15.9785,89.53,23,0,14.03,clear sky
202,kalaswala,PK,32.2009,74.6491,48.16,32,15,3.04,few clouds
203,beringovskiy,RU,63.05,179.3167,28.08,60,5,31.81,clear sky
204,haines junction,CA,60.7522,-137.5108,-27.45,68,100,2.3,overcast clouds
205,port hardy,CA,50.6996,-127.4199,26.78,63,75,21.85,broken clouds
206,luena,AO,-11.7833,19.9167,62.98,95,95,3.8,overcast clouds
207,sehore,IN,23.2,77.0833,66.47,51,0,4.79,clear sky
208,merauke,ID,-8.4667,140.3333,79.72,86,100,4.54,overcast clouds
209,baiao,BR,-2.7906,-49.6717,81.36,86,86,2.17,overcast clouds
210,vanavara,RU,60.34,102.2797,21.27,96,100,5.86,light snow
211,barinas,VE,8.6226,-70.2075,92.1,35,14,7.99,few clouds
212,aksarka,RU,66.5606,67.7975,-12.53,94,16,7.92,few clouds
213,meulaboh,ID,4.1363,96.1285,78.04,81,77,3.85,broken clouds
214,chiredzi,ZW,-21.05,31.6667,73.02,58,50,1.05,scattered clouds
215,tabas,IR,33.5959,56.9244,48.42,34,54,4.61,broken clouds
216,cap malheureux,MU,-19.9842,57.6142,78.48,66,100,1.01,overcast clouds
217,ilulissat,GL,69.2167,-51.1,6.82,56,20,6.91,few clouds
218,methoni,GR,36.8197,21.7049,56.21,69,8,6.15,clear sky
219,sao joao da barra,BR,-21.6403,-41.0511,78.89,81,62,17.13,broken clouds
220,dingle,PH,10.9995,122.6711,75.11,94,95,5.77,overcast clouds
221,kamra,PK,33.7473,73.5111,44.96,26,0,8.86,clear sky
222,kirakira,SB,-10.4544,161.9205,80.42,83,100,6.42,overcast clouds
223,henties bay,NA,-22.116,14.2845,66.42,82,12,8.25,few clouds
224,upernavik,GL,72.7868,-56.1549,0.27,97,10,17.49,clear sky
225,andijon,UZ,40.7821,72.3442,36.68,79,89,2.57,overcast clouds
226,assiniboia,CA,49.6334,-105.9845,-23.98,62,100,21.85,overcast clouds
227,paita,PE,-5.0892,-81.1144,76.23,69,59,11.99,broken clouds
228,esna,EG,25.2934,32.554,61.68,42,58,14.16,broken clouds
229,callaguip,PH,18.0714,120.4867,71.29,73,98,18.39,overcast clouds
230,miandrivazo,MG,-19.5167,45.4667,75.94,84,97,3.58,overcast clouds
231,kologriv,RU,58.8275,44.3178,33.13,98,100,9.78,overcast clouds
232,tomar,PT,39.602,-8.4092,64.42,90,100,3.13,overcast clouds
233,joaima,BR,-16.6542,-41.0306,77.94,85,99,1.28,overcast clouds
234,faanui,PF,-16.4833,-151.75,80.38,77,99,18.57,light rain
235,hay river,CA,60.8156,-115.7999,-36.42,67,40,2.3,scattered clouds
236,havoysund,NO,70.9963,24.6622,26.83,91,100,8.5,light snow
237,sretensk,RU,52.2453,117.7093,-32.53,99,10,1.34,clear sky
238,golden,US,39.7555,-105.2211,0.46,73,40,11.5,scattered clouds
239,santa cruz del sur,CU,20.7147,-77.9956,83.59,51,1,9.53,light rain
240,springfield,US,37.2153,-93.2982,14.22,84,100,26.46,snow
241,havelock,US,34.8791,-76.9013,64.38,91,100,17.27,mist
242,kabo,CF,7.6994,18.629,81.79,20,80,4.97,broken clouds
243,buala,SB,-8.145,159.5921,79.43,85,100,8.23,moderate rain
244,avera,US,33.194,-82.5271,44.11,88,100,4.47,overcast clouds
245,pontes e lacerda,BR,-15.2261,-59.3353,93.7,41,12,4.45,light rain
246,port lincoln,AU,-34.7333,135.8667,60.62,83,61,10.92,broken clouds
247,kahului,US,20.8947,-156.47,69.84,88,0,9.22,clear sky
248,lagoa,PT,39.05,-27.9833,59.63,73,99,26.53,overcast clouds
249,maridi,SS,4.9158,29.4742,83.95,27,79,3.31,broken clouds
250,teya,RU,60.3778,92.6267,-6.0,91,96,9.08,overcast clouds
251,salalah,OM,17.0151,54.0924,77.09,73,40,3.44,scattered clouds
252,diamantino,BR,-14.4086,-56.4461,88.3,57,85,2.57,overcast clouds
253,arlit,NE,18.7369,7.3853,68.4,21,11,18.52,few clouds
254,tenosique,MX,17.4833,-91.4333,79.65,72,10,6.69,clear sky
255,hofn,IS,64.2539,-15.2082,24.82,50,0,18.41,clear sky
256,coquimbo,CL,-29.9533,-71.3436,67.73,72,0,14.97,clear sky
257,zaraza,VE,9.3503,-65.3245,88.25,45,23,9.89,few clouds
258,manggar,ID,-2.8833,108.2667,80.26,81,100,15.61,overcast clouds
259,nizza monferrato,IT,44.7738,8.3539,56.28,97,97,0.94,overcast clouds
260,valparaiso,CL,-33.0393,-71.6273,80.83,53,0,8.05,clear sky
261,barra patuca,HN,15.8,-84.2833,82.69,63,10,9.78,clear sky
262,aleysk,RU,52.4926,82.7822,8.2,93,100,13.31,overcast clouds
263,washim,IN,20.1,77.15,69.98,42,0,5.17,clear sky
264,mayo,US,38.8876,-76.5119,41.95,91,100,9.22,moderate rain
265,northam,GB,51.0333,-4.2167,51.39,98,99,13.49,overcast clouds
266,torbay,CA,47.6666,-52.7314,32.58,65,75,16.11,broken clouds
267,jucas,BR,-6.5253,-39.5275,88.38,46,100,6.31,overcast clouds
268,tooele,US,40.5308,-112.2983,22.14,74,100,9.22,overcast clouds
269,samarai,PG,-10.6167,150.6667,83.08,79,93,8.48,overcast clouds
270,dahuk,IQ,36.8695,42.994,48.25,78,21,1.05,few clouds
271,sao filipe,CV,14.8961,-24.4956,78.06,57,0,9.6,clear sky
272,dengzhou,CN,37.8086,120.7508,24.66,51,100,25.79,overcast clouds
273,oranjemund,NA,-28.55,16.4333,67.84,84,10,12.77,clear sky
274,santa isabel do rio negro,BR,-0.4139,-65.0192,82.4,84,62,2.3,broken clouds
275,loudi,CN,27.7344,111.9944,45.68,31,97,2.86,overcast clouds
276,sayansk,RU,54.1088,102.1648,16.36,96,100,3.4,snow
277,la crosse,US,43.8014,-91.2396,-1.59,76,20,14.97,few clouds
278,punta alta,AR,-38.8759,-62.0736,94.53,33,100,11.52,overcast clouds
279,konevo,RU,62.1215,39.3192,33.04,96,100,10.58,overcast clouds
280,bismarck,US,46.8083,-100.7837,-14.96,70,100,28.77,overcast clouds
281,hervey bay,AU,-25.2986,152.8535,70.84,66,92,5.03,overcast clouds
282,riyadh,SA,24.6877,46.7219,69.94,23,98,7.45,overcast clouds
283,marawi,PH,7.9986,124.2928,68.49,96,92,0.78,heavy intensity rain
284,fort nelson,CA,58.8053,-122.7002,-19.79,91,100,1.83,overcast clouds
285,necochea,AR,-38.5473,-58.7368,88.66,32,75,11.34,broken clouds
286,dandong,CN,40.1292,124.3947,4.08,69,10,15.57,clear sky
287,caravelas,BR,-17.7125,-39.2481,75.51,91,100,9.15,heavy intensity rain
288,zyryanovsk,KZ,49.7386,84.2719,-5.71,97,100,2.08,overcast clouds
289,morgantown,US,39.6295,-79.9559,42.31,87,100,5.75,overcast clouds
290,kachug,RU,53.9606,105.8817,7.52,96,99,1.61,light snow
291,turukhansk,RU,65.8167,87.9833,-9.89,96,100,10.04,overcast clouds
292,lepe,ES,37.2548,-7.2043,63.1,70,6,2.48,clear sky
293,sarangani,PH,5.4033,125.4636,83.16,77,50,11.74,scattered clouds
294,keti bandar,PK,24.1447,67.4497,71.4,39,0,10.56,clear sky
295,panjakent,TJ,39.4952,67.6093,31.06,86,30,0.63,scattered clouds
296,san nicolas,PH,18.1725,120.5953,70.63,75,97,16.93,overcast clouds
297,vardo,NO,70.3705,31.1107,28.38,86,75,19.57,light snow
298,goderich,CA,43.7501,-81.7165,37.9,64,100,13.8,overcast clouds
299,vallenar,CL,-28.5708,-70.7581,87.82,24,0,10.42,clear sky
300,burgersdorp,ZA,-30.9977,26.3286,80.53,33,63,8.9,broken clouds
301,kavaratti,IN,10.5669,72.642,81.63,65,48,4.85,scattered clouds
302,palmerston,AU,-12.486,130.9833,80.58,92,100,14.97,heavy intensity shower rain
303,rzhyshchiv,UA,49.9689,31.0463,33.67,83,100,6.44,overcast clouds
304,jacareacanga,BR,-6.2222,-57.7528,75.06,91,100,0.09,overcast clouds
305,polson,US,47.6936,-114.1632,-16.51,88,6,1.61,clear sky
306,russell,US,32.3502,-85.1999,47.48,93,100,3.44,overcast clouds
307,kharp,RU,66.8014,65.8081,-12.51,90,14,1.72,few clouds
308,vega de alatorre,MX,20.0333,-96.6333,74.44,67,4,3.67,clear sky
309,kalakamati,BW,-20.5929,27.3121,69.28,57,2,14.76,clear sky
310,port macquarie,AU,-31.4333,152.9167,64.89,93,100,8.57,light rain
311,naryan-mar,RU,67.6713,53.087,-9.51,99,40,5.61,scattered clouds
312,port arthur,CN,38.8,121.2667,16.02,65,100,26.93,overcast clouds
313,butajira,ET,8.1167,38.3667,65.39,48,91,3.31,overcast clouds
314,dwarka,IN,22.2394,68.9678,72.68,38,0,11.59,clear sky
315,diego de almagro,CL,-26.3667,-70.05,82.69,21,0,11.34,clear sky
316,kuytun,RU,54.3419,101.5036,19.26,96,100,4.27,snow
317,tela,HN,15.7833,-87.45,79.03,74,85,5.48,overcast clouds
318,marquette,US,46.5333,-87.6335,24.82,90,100,6.31,light snow
319,teahupoo,PF,-17.8333,-149.2667,73.36,80,77,18.7,light rain
320,changde,CN,29.0464,111.6783,43.07,26,98,3.4,overcast clouds
321,barddhaman,IN,23.25,87.85,64.45,29,33,5.26,scattered clouds
322,udachnyy,RU,66.4167,112.4,-20.9,91,70,7.78,broken clouds
323,cabo san lucas,MX,22.8909,-109.9124,73.51,61,0,4.61,clear sky
324,arcelia,MX,18.2833,-100.2667,83.95,38,0,3.53,clear sky
325,grand-lahou,CI,5.1367,-5.0242,82.56,66,40,9.17,scattered clouds
326,gayny,RU,60.3071,54.3241,20.8,94,100,10.6,light snow
327,constitucion,CL,-35.3333,-72.4167,68.4,67,13,9.78,few clouds
328,araxa,BR,-19.5933,-46.9406,80.56,47,0,6.91,clear sky
329,santiago,CL,-33.4569,-70.6483,83.55,32,0,10.36,clear sky
330,kruisfontein,ZA,-34.0033,24.7314,73.96,51,0,15.99,clear sky
331,hutang,CN,31.5333,119.4833,29.52,33,0,6.8,clear sky
332,vila franca do campo,PT,37.7167,-25.4333,65.19,88,100,14.61,light rain
333,aves,PT,41.3703,-8.4101,61.34,95,100,7.96,overcast clouds
334,san vicente,AR,-26.6167,-54.1333,83.55,36,39,3.22,scattered clouds
335,shahr-e babak,IR,30.1165,55.1186,43.05,38,0,3.0,clear sky
336,akdepe,TM,42.0551,59.3788,19.49,60,0,8.79,clear sky
337,port pirie,AU,-33.1833,138.0167,65.97,62,68,8.59,broken clouds
338,utete,TZ,-7.986,38.758,74.8,96,100,4.9,light rain
339,roebourne,AU,-20.7833,117.1333,77.27,67,0,9.98,clear sky
340,sharan,RU,54.8167,54.0,25.03,95,100,21.54,snow
341,puerto quijarro,BO,-17.7833,-57.7667,100.9,26,8,5.03,clear sky
342,calamar,CO,10.2511,-74.9146,89.2,51,23,5.84,few clouds
343,kalmunai,LK,7.4167,81.8167,75.27,92,100,10.13,overcast clouds
344,worcester,US,42.3334,-71.8328,35.56,75,20,5.75,few clouds
345,gornopravdinsk,RU,60.05,69.9,3.65,88,100,11.39,overcast clouds
346,palana,RU,59.1167,159.9667,12.22,74,91,15.68,overcast clouds
347,bethel,US,41.3712,-73.414,39.88,74,20,4.61,few clouds
348,adrar,MR,20.5022,-10.0711,77.11,14,0,14.09,clear sky
349,flinders,AU,-34.5833,150.8552,61.18,88,93,4.0,overcast clouds
350,tonj,SS,7.2737,28.6822,87.26,22,100,4.25,overcast clouds
351,stephenville,US,32.2207,-98.2023,20.55,79,100,27.63,overcast clouds
352,cidreira,BR,-30.1811,-50.2056,74.07,57,5,15.59,clear sky
353,chifeng,CN,42.2683,118.9636,4.3,36,9,15.1,clear sky
354,tura,IN,25.5198,90.2201,58.71,66,16,2.04,few clouds
355,luganville,VU,-15.5333,167.1667,79.88,82,98,5.97,overcast clouds
356,sheregesh,RU,52.9209,87.9869,2.7,98,100,2.48,light snow
357,prieska,ZA,-29.6641,22.7474,96.22,16,56,7.18,broken clouds
358,leer,DE,53.2316,7.461,45.97,92,82,9.51,broken clouds
359,zhanaozen,KZ,43.3,52.8,28.74,45,24,13.82,few clouds
360,fare,PF,-16.7,-151.0167,80.2,77,95,17.81,light rain
361,forecariah,GN,9.4306,-13.0881,93.02,14,81,2.95,broken clouds
362,bandarbeyla,SO,9.4942,50.8122,77.52,80,26,16.2,scattered clouds
363,marzuq,YE,14.4,46.4667,62.31,69,11,6.73,few clouds
364,hasaki,JP,35.7333,140.8333,46.8,40,32,26.71,scattered clouds
365,belmonte,BR,-15.8631,-38.8828,80.37,84,95,8.34,moderate rain
366,ishinomaki,JP,38.4167,141.3,41.25,61,78,20.07,broken clouds
367,vancouver,CA,49.2497,-123.1193,18.23,75,20,11.5,few clouds
368,vila velha,BR,-20.3297,-40.2925,78.75,86,100,11.5,overcast clouds
369,san pedro de ycuamandiyu,PY,-24.0917,-57.0764,99.03,22,0,5.28,clear sky
370,uruzgan,AF,32.8333,66.0,36.86,35,1,1.59,clear sky
371,faya,SA,18.3851,42.4509,59.11,62,2,3.22,clear sky
372,namatanai,PG,-3.6667,152.4333,78.93,83,83,5.55,light rain
373,grindavik,IS,63.8424,-22.4338,27.07,54,75,16.11,broken clouds
374,belaya gora,RU,68.5333,146.4167,-22.92,100,15,1.81,few clouds
375,vatne,NO,62.5667,6.65,35.44,93,100,3.0,light snow
376,moree,AU,-29.4667,149.85,76.6,44,100,11.74,light rain
377,ust-kuyga,RU,70.0167,135.6,-23.22,99,95,0.96,overcast clouds
378,cabedelo,BR,-6.9811,-34.8339,86.67,65,96,13.29,overcast clouds
379,vostok,RU,46.4856,135.8833,16.25,67,100,12.93,overcast clouds
380,hluti,SZ,-27.2167,31.6167,67.64,62,0,7.25,clear sky
381,talnakh,RU,69.4865,88.3972,-9.8,95,100,16.51,overcast clouds
382,geraldton,AU,-28.7667,114.6,66.61,72,4,4.61,clear sky
383,pasighat,IN,28.0667,95.3333,63.07,55,81,3.53,broken clouds
384,ovalle,CL,-30.5983,-71.2003,87.01,24,0,7.56,clear sky
385,acarau,BR,-2.8856,-40.12,84.79,64,72,14.34,light rain
386,buchanan,LR,5.8808,-10.0467,82.71,68,96,10.54,overcast clouds
387,luau,AO,-10.7073,22.2247,65.25,96,100,0.2,light rain
388,camacha,PT,33.0833,-16.3333,65.62,77,40,9.22,scattered clouds
389,balabac,PH,7.9868,117.0645,80.33,78,85,21.09,overcast clouds
390,comodoro rivadavia,AR,-45.8667,-67.5,73.26,23,0,24.16,clear sky
391,sao miguel do araguaia,BR,-13.275,-50.1628,79.57,81,98,8.3,overcast clouds
392,wanning,CN,18.8003,110.3967,61.93,72,92,5.97,overcast clouds
393,monte alegre,BR,-2.0078,-54.0692,82.15,74,91,2.48,moderate rain
394,beyneu,KZ,45.3167,55.2,24.04,65,0,10.96,clear sky
395,kutum,SD,14.2,24.6667,71.24,23,85,7.34,overcast clouds
396,kaka,TM,37.3482,59.6143,38.86,56,99,8.01,overcast clouds
397,somanda,TZ,-3.3667,33.95,66.36,92,96,6.49,moderate rain
398,sola,VU,-13.8833,167.55,82.94,74,82,12.5,broken clouds
399,lucapa,AO,-8.4192,20.7447,65.97,96,99,3.44,light rain
400,torrington,US,41.8007,-73.1212,39.18,76,100,4.0,overcast clouds
401,aloleng,PH,16.1307,119.7824,75.7,81,91,7.63,overcast clouds
402,arusha,TZ,-3.3667,36.6833,74.97,60,75,0.0,broken clouds
403,palmer,US,42.1584,-72.3287,40.64,66,75,5.75,broken clouds
404,lavrentiya,RU,65.5833,-171.0,13.37,82,1,15.03,clear sky
405,pisco,PE,-13.7,-76.2167,73.45,78,0,10.36,clear sky
406,obihiro,JP,42.9172,143.2044,33.69,99,100,11.77,snow
407,nichinan,JP,31.6,131.3667,38.71,84,47,11.81,scattered clouds
408,zaozerne,UA,45.1582,33.2787,44.58,60,26,7.16,scattered clouds
409,korla,CN,41.7597,86.1469,23.77,41,82,1.48,broken clouds
410,mantua,IT,45.1667,10.7833,47.01,91,85,3.0,overcast clouds
411,angoche,MZ,-16.2325,39.9086,75.16,85,100,7.96,overcast clouds
412,los llanos de aridane,ES,28.6585,-17.9182,71.13,51,20,9.22,few clouds
413,ola,RU,59.5833,151.2833,2.12,77,23,11.03,few clouds
414,sitka,US,57.0531,-135.33,30.09,51,100,4.61,overcast clouds
415,port hawkesbury,CA,45.6169,-61.3485,35.19,77,100,15.01,overcast clouds
416,manicore,BR,-5.8092,-61.3003,83.5,66,98,2.15,overcast clouds
417,opotiki,NZ,-38.0833,177.2833,62.38,96,31,4.18,scattered clouds
418,nuuk,GL,64.1835,-51.7216,20.01,49,0,0.0,clear sky
419,mount gambier,AU,-37.8333,140.7667,55.54,98,38,2.39,scattered clouds
420,jumla,NP,29.2747,82.1838,35.74,27,0,5.79,clear sky
421,nsanje,MW,-16.92,35.262,72.48,94,99,5.79,light rain
422,saint-joseph,RE,-21.3667,55.6167,77.38,77,100,5.26,overcast clouds
423,gao,ML,16.6362,1.637,74.41,16,75,13.29,broken clouds
424,hesperia,US,34.4264,-117.3009,58.46,54,82,0.81,broken clouds
425,gizo,SB,-8.103,156.8419,82.06,78,93,4.21,light rain
426,inongo,CD,-1.95,18.2667,74.35,82,91,3.49,overcast clouds
427,gondanglegi,ID,-7.7479,112.0132,76.3,87,100,4.0,overcast clouds
428,kuusamo,FI,65.9667,29.1833,21.24,93,100,4.61,light snow
429,sangareddi,IN,17.6294,78.0917,64.72,45,3,5.91,clear sky
430,jos,NG,9.9167,8.9,74.5,29,34,7.09,scattered clouds
431,ambilobe,MG,-13.2,49.05,76.82,86,76,6.38,light rain
432,genhe,CN,50.7833,121.5167,-21.78,97,36,3.04,scattered clouds
433,sattur,IN,9.3667,77.9333,75.52,65,100,6.58,overcast clouds
434,richmond,US,37.5538,-77.4603,42.78,94,100,10.36,moderate rain
435,nizhniy kuranakh,RU,58.8353,125.4869,-36.47,99,77,1.28,broken clouds
436,chacabuco,AR,-34.6417,-60.4739,92.82,19,39,10.31,scattered clouds
437,mount isa,AU,-20.7333,139.5,83.97,51,93,11.5,light rain
438,usinsk,RU,65.9939,57.5281,-1.68,99,95,8.01,overcast clouds
439,kudahuvadhoo,MV,2.6708,72.8944,79.65,78,100,5.82,overcast clouds
440,alta floresta,BR,-9.8756,-56.0861,76.1,93,100,5.5,overcast clouds
441,ixtapa,MX,20.7,-105.2,67.23,83,0,3.44,clear sky
442,belokurikha,RU,51.9959,84.9896,9.55,97,100,2.19,overcast clouds
443,batemans bay,AU,-35.7167,150.1833,61.11,88,12,3.78,few clouds
444,puerto ayacucho,VE,5.6639,-67.6236,89.47,50,46,2.93,scattered clouds
445,anadyr,RU,64.75,177.4833,19.9,45,0,24.61,clear sky
446,whitehaven,GB,54.549,-3.5841,41.65,100,94,2.37,overcast clouds
447,batagay,RU,67.6333,134.6333,-24.27,99,20,1.34,few clouds
448,ust-nera,RU,64.5667,143.2,-4.23,98,80,3.96,broken clouds
449,antofagasta,CL,-23.65,-70.4,70.88,64,8,12.86,clear sky
450,leningradskiy,RU,69.3833,178.4167,5.23,71,2,3.56,clear sky
451,asau,RO,46.4333,26.4,25.72,71,100,5.23,overcast clouds
452,kinkala,CG,-4.3614,14.7644,73.15,91,98,2.39,light rain
453,hurup,DK,56.7494,8.4195,43.72,95,51,8.99,broken clouds
454,karasburg,NA,-28.0167,18.75,91.58,17,41,21.23,scattered clouds
455,puerto escondido,MX,15.85,-97.0667,83.23,69,20,0.0,few clouds
456,nhulunbuy,AU,-12.2333,136.7667,81.21,83,99,6.91,overcast clouds
457,margate,GB,51.3813,1.3862,51.91,93,100,5.01,overcast clouds
458,norre alslev,DK,54.8978,11.8841,41.77,93,90,19.26,overcast clouds
459,salihorsk,BY,52.7876,27.5415,33.73,100,100,7.78,overcast clouds
460,dargaville,NZ,-35.9333,173.8833,56.23,93,2,4.09,clear sky
461,haapiti,PF,-17.5667,-149.8667,78.53,75,65,16.51,light rain
462,biak,ID,-0.9131,122.8766,76.89,81,68,2.48,broken clouds
463,apartado,CO,7.883,-76.6259,87.66,66,20,11.5,few clouds
464,salinopolis,BR,-0.6136,-47.3561,81.16,82,79,10.4,broken clouds
465,mvuma,ZW,-19.2792,30.5283,61.45,82,100,10.45,overcast clouds
466,molchanovo,RU,57.5817,83.7692,-4.36,95,100,5.82,overcast clouds
467,nelson bay,AU,-32.7167,152.15,66.0,92,100,7.0,light rain
468,iquique,CL,-20.2208,-70.1431,73.44,67,2,10.36,clear sky
469,touros,BR,-5.1989,-35.4608,85.26,57,50,12.44,scattered clouds
470,ayan,RU,56.45,138.1667,11.73,92,100,12.95,light snow
471,ossora,RU,59.2353,163.0719,12.33,67,89,12.08,overcast clouds
472,agliana,IT,43.9066,11.0062,55.71,95,100,2.3,mist
473,scarborough,GB,54.2797,-0.4044,44.17,91,100,5.46,overcast clouds
474,katsuura,JP,35.1333,140.3,47.1,52,2,22.01,clear sky
475,santa cruz de la palma,ES,28.6835,-17.7642,75.15,73,20,8.05,few clouds
476,naze,JP,28.3667,129.4833,49.12,69,97,26.87,light rain
477,kita,ML,13.0349,-9.4895,86.86,11,97,8.86,overcast clouds
478,aquin,HT,18.2833,-73.4,81.52,59,0,8.37,clear sky
479,san cristobal,VE,7.7669,-72.225,75.38,47,12,6.69,few clouds
480,nakur,IN,29.9167,77.3,51.51,37,0,4.61,clear sky
481,birao,CF,10.2849,22.7882,81.18,18,97,5.7,overcast clouds
482,memmingen,DE,47.9837,10.1853,50.02,76,75,19.57,broken clouds
483,clyde river,CA,70.4692,-68.5914,-12.77,77,75,8.05,broken clouds
484,dhidhdhoo,MV,6.8833,73.1,81.34,72,100,4.54,overcast clouds
485,pahrump,US,36.2083,-115.9839,39.25,43,98,2.21,overcast clouds
486,port keats,AU,-14.25,129.55,77.25,95,100,18.01,moderate rain
487,sale,MA,34.0389,-6.8166,65.08,88,20,8.05,few clouds
488,san jose,US,37.3394,-121.895,53.58,84,100,3.44,haze
489,ginda,IN,30.6945,78.4932,42.22,14,3,7.07,clear sky
490,trelew,AR,-43.249,-65.3051,91.67,16,0,29.93,clear sky
491,pangnirtung,CA,66.1451,-65.7125,6.8,66,20,4.61,few clouds
492,pochutla,MX,15.7432,-96.4661,83.82,49,4,4.94,clear sky
493,viedma,AR,-40.8135,-62.9967,91.08,28,100,18.45,overcast clouds
494,cayenne,GF,4.9333,-52.3333,84.24,61,75,12.66,broken clouds
495,anuchino,RU,43.9622,133.0544,5.09,96,100,8.01,snow
496,coahuayana,MX,18.7333,-103.6833,85.66,36,0,3.42,clear sky
497,auki,SB,-8.7676,160.7034,77.92,87,100,4.59,overcast clouds
498,richards bay,ZA,-28.783,32.0377,70.75,68,0,13.62,clear sky
499,havre-saint-pierre,CA,50.2334,-63.5986,28.4,80,0,10.36,clear sky
500,kamennomostskiy,RU,44.2983,40.1856,34.05,84,0,4.36,clear sky
501,atar,MR,20.5169,-13.0499,81.18,11,0,17.25,clear sky
502,alyangula,AU,-13.8483,136.4192,81.7,79,100,11.95,overcast clouds
503,terenos,BR,-20.4422,-54.8603,87.51,42,40,8.05,scattered clouds
504,gobabis,NA,-22.45,18.9667,90.32,19,86,18.72,overcast clouds
505,kamaishi,JP,39.2667,141.8833,41.9,53,82,24.92,broken clouds
506,kuching,MY,1.55,110.3333,80.04,93,40,2.3,moderate rain
507,bria,CF,6.5423,21.9863,82.58,24,44,4.74,scattered clouds
508,wanaka,NZ,-44.7,169.15,55.11,94,48,2.53,scattered clouds
509,novovarshavka,RU,54.1721,74.6946,-17.63,99,22,4.47,few clouds
510,ngunguru,NZ,-35.6167,174.5,59.25,87,9,5.86,clear sky
511,te anau,NZ,-45.4167,167.7167,50.67,92,96,0.74,overcast clouds
512,zyryanka,RU,65.75,150.85,-30.77,100,15,1.9,few clouds
513,sechura,PE,-5.5569,-80.8222,81.27,56,50,10.42,scattered clouds
514,ierapetra,GR,35.01,25.7353,58.14,65,86,4.0,overcast clouds
515,ferrol,ES,43.4832,-8.2369,64.92,78,95,21.25,overcast clouds
516,koumra,TD,8.9126,17.5539,79.39,21,74,5.86,broken clouds
517,barberton,ZA,-25.7884,31.0532,71.69,74,4,3.44,clear sky
518,makakilo city,US,21.3469,-158.0858,69.01,88,0,4.61,clear sky
519,haimen,CN,23.1935,116.6142,55.29,54,0,6.76,clear sky
520,mezhgorye,UA,44.9667,34.4167,37.45,85,59,5.1,broken clouds
521,syriam,MM,16.7722,96.2378,78.91,83,20,4.61,few clouds
522,maniitsoq,GL,65.4167,-52.9,17.31,65,12,4.63,few clouds
523,biltine,TD,14.5333,20.9167,75.88,25,16,9.48,few clouds
524,kidal,ML,18.4411,1.4078,73.45,19,74,13.06,broken clouds
525,wanxian,CN,30.8039,108.3897,51.22,58,99,0.63,overcast clouds
526,sur,OM,22.5667,59.5289,72.14,46,29,2.13,scattered clouds
527,qandala,SO,11.472,49.8728,76.96,83,85,7.92,overcast clouds
528,canete,CL,-37.8,-73.4,63.48,62,92,6.42,overcast clouds
529,provost,CA,52.3501,-110.2683,-32.35,100,98,5.21,overcast clouds
530,mahanoro,MG,-19.9,48.8,73.2,92,100,12.06,light rain
531,huarmey,PE,-10.0681,-78.1522,75.52,72,37,13.06,scattered clouds
532,ciudad bolivar,VE,8.1222,-63.5497,87.08,47,90,12.39,overcast clouds
533,muisne,EC,0.6,-80.0333,78.35,77,91,8.43,overcast clouds
534,yerbogachen,RU,61.2767,108.0108,7.03,96,100,6.51,overcast clouds
535,ternate,ID,0.8,127.4,81.73,81,25,6.4,scattered clouds
536,hwange,ZW,-18.3693,26.5019,76.37,55,85,4.09,overcast clouds
537,sobolevo,RU,54.4299,31.8996,33.26,100,100,6.98,overcast clouds
538,xinyu,CN,27.8043,114.9334,41.88,51,8,4.68,clear sky
539,port blair,IN,11.6667,92.75,82.44,74,20,2.3,mist
540,souillac,MU,-20.5167,57.5167,77.38,69,20,4.61,few clouds
541,gelgaudiskis,LT,55.0792,22.9758,35.74,100,100,8.3,overcast clouds
542,grand gaube,MU,-20.0064,57.6608,77.4,66,100,1.01,overcast clouds
543,tabuk,PH,17.4189,121.4443,65.23,90,100,10.04,light rain
544,ryotsu,JP,38.0833,138.4333,41.04,68,77,31.88,broken clouds
545,acajutla,SV,13.5928,-89.8275,84.72,50,10,6.89,clear sky
546,lasa,IT,46.6166,10.7002,45.48,77,24,5.14,few clouds
547,kaili,ID,-3.4626,120.2147,66.6,91,89,3.85,overcast clouds
548,stornoway,GB,58.2093,-6.3865,44.56,85,75,18.41,broken clouds
549,saint-georges,GD,12.0564,-61.7485,82.08,74,20,21.85,few clouds
550,choix,MX,26.7092,-108.3219,73.11,23,0,3.22,clear sky
551,meadow lake,US,34.8014,-106.5436,47.61,36,0,7.47,clear sky
552,cravo norte,CO,6.3017,-70.2041,91.2,39,12,12.66,few clouds
553,koumac,NC,-20.5667,164.2833,77.76,82,7,0.6,clear sky
554,batagay-alyta,RU,67.8006,130.4114,-10.43,97,96,3.24,overcast clouds
555,noumea,NC,-22.2763,166.4572,79.0,99,5,4.21,clear sky
556,dunedin,NZ,-45.8742,170.5036,56.8,88,99,3.0,overcast clouds
557,laterza,IT,40.6295,16.7997,52.25,87,23,3.44,few clouds
558,gat,IL,31.61,34.7642,62.82,100,5,5.37,clear sky
559,najran,SA,17.4924,44.1277,68.65,32,0,3.24,clear sky
560,tres arroyos,AR,-38.3739,-60.2798,95.76,18,100,9.19,overcast clouds
561,ankang,CN,32.68,109.0172,42.49,51,49,0.83,scattered clouds
562,ivot,RU,53.6756,34.1872,33.13,99,100,4.99,overcast clouds
563,honiara,SB,-9.4333,159.95,78.33,86,96,4.76,overcast clouds
564,bobrovytsya,UA,50.75,31.3833,32.77,87,100,6.17,overcast clouds
565,lleida,ES,41.6167,0.6167,59.9,78,0,9.22,clear sky
566,cockburn town,TC,21.4612,-71.1419,82.36,65,40,13.8,scattered clouds
567,wasilla,US,61.5814,-149.4394,20.3,64,0,18.01,clear sky
568,zalantun,CN,48.0,122.7167,-4.76,77,89,8.72,overcast clouds
569,astrea,CO,9.4983,-73.9759,89.85,50,6,1.16,clear sky
570,huangmei,CN,30.1924,116.025,34.56,35,1,5.37,clear sky
571,innisfail,AU,-17.5333,146.0333,75.85,81,100,3.74,overcast clouds
572,saint-francois,FR,46.4154,3.9054,51.24,87,75,2.3,light rain
573,balkanabat,TM,39.5108,54.3671,40.66,55,8,12.84,clear sky
574,broome,US,42.2506,-75.833,34.02,92,100,9.22,snow
575,kinablangan,PH,7.6947,126.5503,78.1,89,56,5.1,broken clouds
576,inuvik,CA,68.3499,-133.7218,-1.19,77,100,1.14,light snow
577,bom sucesso,BR,-21.0331,-44.7581,74.66,62,80,7.18,broken clouds
578,tomatlan,MX,19.9333,-105.25,85.53,35,10,2.77,clear sky
579,snasa,NO,64.2457,12.3778,20.61,98,100,4.76,overcast clouds
580,bara,NG,10.3744,10.7288,82.18,23,40,7.9,scattered clouds
581,guacimo,CR,10.2104,-83.6807,86.04,59,50,5.35,scattered clouds
582,anito,PH,12.4497,125.2886,77.0,91,82,4.25,broken clouds
583,ancud,CL,-41.8697,-73.8203,58.35,55,61,10.96,broken clouds
584,leshukonskoye,RU,64.8989,45.7622,18.36,97,100,2.62,light snow
585,bambanglipuro,ID,-7.95,110.2833,77.4,92,100,21.59,light rain
586,tete,MZ,-16.1564,33.5867,73.49,88,75,6.91,light rain
587,xichang,CN,27.8964,102.2634,44.19,95,94,1.1,overcast clouds
588,matara,LK,5.9485,80.5353,76.08,90,75,4.14,broken clouds
589,morondava,MG,-20.2833,44.2833,79.75,74,100,5.68,light rain
590,guarumal,PA,8.35,-82.5333,86.09,66,40,5.75,scattered clouds
591,novikovo,RU,51.1537,37.8879,35.42,92,100,11.18,overcast clouds
592,gorbatovka,RU,56.2531,43.7475,33.75,100,100,8.95,overcast clouds
593,aras,ES,42.5617,-2.356,57.76,72,40,5.75,scattered clouds
594,portland,US,45.5234,-122.6762,24.62,51,75,29.93,snow
595,chokwe,MZ,-24.5333,32.9833,71.96,56,0,8.3,clear sky
596,vila do maio,CV,15.1333,-23.2167,81.39,67,0,17.63,clear sky
597,brookings,US,44.3114,-96.7984,-15.83,71,100,27.63,haze
598,weyburn,CA,49.6668,-103.8511,-16.38,69,100,23.02,overcast clouds
599,kungsbacka,SE,57.4872,12.0761,42.75,89,100,14.0,overcast clouds
600,tromso,NO,69.6496,18.957,28.42,80,100,19.57,light snow
601,sakaiminato,JP,35.55,133.2333,31.98,64,75,31.07,light snow
602,hirara,JP,24.8,125.2833,60.08,61,34,30.0,scattered clouds
603,mount darwin,ZW,-16.7725,31.5838,69.12,74,100,8.01,overcast clouds
604,san isidro,PE,-12.1167,-77.05,71.19,78,75,14.97,broken clouds
605,vetluzhskiy,RU,58.3902,45.4654,33.13,98,100,9.86,overcast clouds
606,iguape,BR,-24.7081,-47.5553,75.87,63,14,11.18,few clouds
607,xining,CN,36.6167,101.7667,17.98,56,17,1.43,few clouds
608,karimpur,IN,23.9667,88.6167,63.93,38,16,6.6,few clouds
609,emerald,AU,-23.5333,148.1667,64.35,77,86,10.42,overcast clouds
610,griffith,US,41.5284,-87.4237,34.29,77,100,0.0,overcast clouds
611,kurumkan,RU,54.3,110.3,-2.92,84,58,2.42,broken clouds
612,inyonga,TZ,-6.7167,32.0667,64.69,94,65,4.97,light rain
613,neyshabur,IR,36.2133,58.7958,37.08,62,99,4.03,overcast clouds
614,hornepayne,CA,49.2138,-84.7705,15.64,94,100,8.93,light snow
615,atlantic beach,US,30.3344,-81.3987,53.85,97,100,8.05,mist
616,kattivakkam,IN,13.2167,80.3167,78.89,73,100,12.95,overcast clouds
617,college,US,64.8569,-147.8028,-29.25,64,0,0.0,clear sky
618,whitehorse,CA,60.7161,-135.0538,-19.43,76,100,2.3,light snow
619,ewa beach,US,21.3156,-158.0072,70.43,91,0,4.61,clear sky
620,bogale,MM,16.2833,95.4,73.71,81,68,5.3,broken clouds
621,puruaran,MX,19.1,-101.5333,77.27,39,3,3.69,clear sky
622,krasnoyarskiy,RU,51.965,59.8967,11.14,91,98,14.63,overcast clouds
623,salinas,US,36.6777,-121.6555,52.5,86,0,5.75,clear sky
624,kalispell,US,48.1958,-114.3129,-16.62,74,20,0.0,few clouds
625,jackson,US,42.4165,-122.8345,41.79,96,100,3.44,fog
626,kamiiso,JP,41.8167,140.65,39.51,81,100,20.94,overcast clouds
627,chany,RU,55.3121,76.7647,-27.13,100,26,4.47,scattered clouds
628,vrangel,RU,42.7297,133.0839,12.47,86,100,24.32,overcast clouds
629,vikindu,TZ,-7.0067,39.2985,82.04,78,20,11.5,few clouds
630,nemuro,JP,43.3236,145.575,36.91,96,100,43.78,light rain
631,hermosillo,MX,29.0667,-110.9667,64.24,34,0,1.01,clear sky
632,yeniseysk,RU,58.4497,92.1703,1.2,91,100,7.18,overcast clouds
633,oksfjord,NO,70.2396,22.3479,23.18,86,90,6.4,overcast clouds
634,martapura,ID,-3.4167,114.85,77.09,94,100,2.3,moderate rain
635,okara,PK,30.8081,73.4458,55.8,31,27,2.64,scattered clouds
636,san blas,MX,21.5167,-105.2667,73.29,41,0,3.47,clear sky
637,baykit,RU,61.67,96.37,8.11,94,98,5.14,overcast clouds
638,omaruru,NA,-21.4333,15.9333,85.66,25,62,9.31,broken clouds
639,kolaras,IN,25.2333,77.6,60.26,45,0,7.16,clear sky
640,seoul,KR,37.5683,126.9778,11.8,59,20,17.27,few clouds
641,pokhara,NP,28.2333,83.9833,55.6,45,0,5.39,clear sky
642,tara,RU,56.8944,74.371,-23.04,99,20,5.06,few clouds
643,kungurtug,RU,50.5994,97.5228,-3.84,98,81,1.88,broken clouds
644,tashtyp,RU,52.7939,89.8983,1.15,92,48,4.43,scattered clouds
645,berlevag,NO,70.8578,29.0864,26.6,80,100,8.05,overcast clouds
646,batouri,CM,4.4333,14.3667,80.13,28,15,2.68,few clouds
647,taguatinga,BR,-12.3857,-46.5711,79.32,77,95,5.41,overcast clouds
648,chaman,PK,30.9236,66.4512,41.77,45,0,1.77,clear sky
649,denpasar,ID,-8.65,115.2167,76.71,94,75,14.97,mist
650,jadu,LY,31.953,12.0261,52.61,59,3,5.66,clear sky
651,alenquer,BR,-1.9417,-54.7383,82.13,75,82,3.87,moderate rain
652,areosa,PT,41.7178,-8.8571,60.89,97,99,15.68,overcast clouds
653,chapais,CA,49.7834,-74.8492,1.18,84,99,7.18,overcast clouds
654,suluq,LY,31.6682,20.2521,61.95,56,79,10.02,broken clouds
655,dhadar,IN,28.3305,75.0632,56.5,24,0,6.11,clear sky
656,weligama,LK,5.9667,80.4167,75.92,91,74,4.34,broken clouds
657,lebanon,US,36.2081,-86.2911,48.9,86,100,11.97,overcast clouds
658,yakeshi,CN,49.2833,120.7333,-32.33,99,55,2.37,broken clouds
659,novyy starodub,UA,48.5158,33.1733,38.37,94,100,10.29,overcast clouds
660,smithers,CA,54.7804,-127.1743,-12.68,70,75,5.75,broken clouds
661,carutapera,BR,-1.195,-46.02,81.25,82,96,7.87,overcast clouds
662,evansville,US,37.9748,-87.5558,45.18,92,100,4.61,mist
663,tembisa,ZA,-25.9964,28.2268,75.29,64,3,6.11,clear sky
664,livingstone,ZM,-17.8419,25.8543,78.19,60,99,5.03,overcast clouds
665,kiruna,SE,67.8557,20.2251,7.72,85,90,6.91,overcast clouds
666,tilichiki,RU,60.4667,166.1,-1.68,89,97,11.99,overcast clouds
667,kedougou,SN,12.5579,-12.1743,90.18,15,0,6.91,clear sky
668,soe,ID,-9.8607,124.284,66.51,93,100,3.65,overcast clouds
669,fukue,JP,32.6881,128.8419,40.59,78,100,35.66,overcast clouds
670,fairbanks,US,64.8378,-147.7164,-29.24,67,0,0.0,clear sky
671,kohlu,PK,29.8962,69.252,45.54,26,0,2.3,clear sky
672,kenai,US,60.5544,-151.2583,19.45,68,100,24.16,mist
673,tessalit,ML,20.1986,1.0114,72.28,20,85,6.51,overcast clouds
674,santa fe,AR,-31.6333,-60.7,95.02,40,80,5.95,broken clouds
675,ballina,AU,-28.8667,153.5667,65.32,84,70,8.59,broken clouds
676,arona,ES,28.0996,-16.681,69.12,71,0,10.36,clear sky
